,beacon_id,datetime_data,datetime_transmit,latitude,longitude,temperature_air,temperature_internal,temperature_surface,pressure,pitch,roll,heading,satellites,voltage,loc_accuracy,distance,speed,direction
0,1997_12995,1997-08-16 07:07:00+00:00,1997-08-16 07:10:00+00:00,64.51,-59.797,,1.6,,920.0,,,,,15.0,3,,,
1,1997_12995,1997-08-16 08:48:00+00:00,1997-08-16 08:57:00+00:00,64.498,-59.79,,1.6,,920.0,,,,,15.0,3,,,
2,1997_12995,1997-08-16 10:27:00+00:00,1997-08-16 10:29:00+00:00,64.487,-59.791,,3.4,,920.0,,,,,15.0,2,,,
3,1997_12995,1997-08-16 10:41:00+00:00,1997-08-16 10:42:00+00:00,64.486,-59.795,,3.7,,920.0,,,,,15.0,3,,,
4,1997_12995,1997-08-16 12:07:00+00:00,1997-08-16 12:09:00+00:00,64.479,-59.809,,5.2,,920.0,,,,,15.0,2,,,
5,1997_12995,1997-08-16 12:18:00+00:00,1997-08-16 12:21:00+00:00,64.475,-59.802,,5.2,,920.0,,,,,15.0,3,,,
6,1997_12995,1997-08-16 13:46:00+00:00,1997-08-16 13:46:00+00:00,64.472,-59.824,,5.5,,920.0,,,,,15.0,1,,,
7,1997_12995,1997-08-16 13:58:00+00:00,1997-08-16 14:01:00+00:00,64.468,-59.818,,5.8,,920.0,,,,,15.0,3,,,
8,1997_12995,1997-08-16 15:25:00+00:00,1997-08-16 15:34:00+00:00,64.467,-59.847,,7.3,,920.0,,,,,15.0,3,,,
9,1997_12995,1997-08-16 17:06:00+00:00,1997-08-16 17:16:00+00:00,64.458,-59.911,,7.9,,920.0,,,,,15.0,1,,,
10,1997_12995,1997-08-16 18:48:00+00:00,1997-08-16 18:53:00+00:00,64.465,-59.899,,7.6,,920.0,,,,,15.0,3,,,
11,1997_12995,1997-08-16 18:56:00+00:00,1997-08-16 18:57:00+00:00,64.466,-59.899,,7.9,,920.0,,,,,15.0,2,,,
12,1997_12995,1997-08-16 20:31:00+00:00,1997-08-16 20:35:00+00:00,64.467,-59.912,,4.9,,920.0,,,,,15.0,3,,,
13,1997_12995,1997-08-16 22:13:00+00:00,1997-08-16 22:15:00+00:00,64.473,-59.903,,3.1,,920.0,,,,,15.0,3,,,
14,1997_12995,1997-08-16 23:57:00+00:00,1997-08-17 05:12:00+00:00,64.485,-59.883,,1.9,,920.0,,,,,15.0,2,,,
15,1997_12995,1997-08-17 06:56:00+00:00,1997-08-17 06:58:00+00:00,64.473,-59.899,,1.3,,920.0,,,,,15.0,3,,,
16,1997_12995,1997-08-17 08:37:00+00:00,1997-08-17 08:33:00+00:00,64.469,-59.907,,1.0,,920.0,,,,,15.0,3,,,
17,1997_12995,1997-08-17 10:17:00+00:00,1997-08-17 10:19:00+00:00,64.46,-59.898,,2.8,,920.0,,,,,15.0,3,,,
18,1997_12995,1997-08-17 11:58:00+00:00,1997-08-17 11:55:00+00:00,64.453,-59.89,,3.7,,920.0,,,,,15.0,2,,,
19,1997_12995,1997-08-17 13:36:00+00:00,1997-08-17 13:36:00+00:00,64.445,-59.888,,4.6,,920.0,,,,,15.0,1,,,
20,1997_12995,1997-08-17 13:39:00+00:00,1997-08-17 13:41:00+00:00,64.445,-59.896,,4.6,,920.0,,,,,15.0,2,,,
21,1997_12995,1997-08-17 15:14:00+00:00,1997-08-17 15:15:00+00:00,64.435,-59.901,,4.9,,920.0,,,,,15.0,2,,,
22,1997_12995,1997-08-17 15:15:00+00:00,1997-08-17 15:17:00+00:00,64.439,-59.908,,4.9,,920.0,,,,,15.0,2,,,
23,1997_12995,1997-08-17 16:54:00+00:00,1997-08-17 18:31:00+00:00,64.433,-59.922,,4.9,,920.0,,,,,15.0,1,,,
24,1997_12995,1997-08-17 18:38:00+00:00,1997-08-17 18:40:00+00:00,64.426,-59.975,,4.9,,920.0,,,,,15.0,3,,,
25,1997_12995,1997-08-17 20:12:00+00:00,1997-08-17 20:14:00+00:00,64.426,-59.999,,4.9,,920.0,,,,,15.0,3,,,
26,1997_12995,1997-08-17 20:19:00+00:00,1997-08-17 20:20:00+00:00,64.414,-60.009,,5.2,,920.0,,,,,15.0,1,,,
27,1997_12995,1997-08-17 21:52:00+00:00,1997-08-17 21:55:00+00:00,64.428,-60.011,,5.2,,920.0,,,,,15.0,3,,,
28,1997_12995,1997-08-17 23:33:00+00:00,1997-08-17 23:36:00+00:00,64.428,-59.997,,3.4,,920.0,,,,,14.8,2,,,
29,1997_12995,1997-08-18 05:04:00+00:00,1997-08-18 05:05:00+00:00,64.419,-59.988,,1.0,,920.0,,,,,14.8,2,,,
30,1997_12995,1997-08-18 06:45:00+00:00,1997-08-18 11:40:00+00:00,64.411,-60.006,,1.9,,920.0,,,,,14.8,3,,,
31,1997_12995,1997-08-18 08:27:00+00:00,1997-08-18 08:29:00+00:00,64.402,-60.035,,1.3,,920.0,,,,,14.8,3,,,
32,1997_12995,1997-08-18 09:56:00+00:00,1997-08-18 09:57:00+00:00,64.393,-60.048,,1.6,,920.0,,,,,14.8,3,,,
33,1997_12995,1997-08-18 10:05:00+00:00,1997-08-18 11:40:00+00:00,64.396,-60.052,,1.9,,920.0,,,,,14.8,2,,,
34,1997_12995,1997-08-18 11:45:00+00:00,1997-08-18 11:48:00+00:00,64.388,-60.055,,2.2,,920.0,,,,,14.8,1,,,
35,1997_12995,1997-08-18 13:15:00+00:00,1997-08-18 13:23:00+00:00,64.381,-60.047,,3.1,,920.0,,,,,14.8,2,,,
36,1997_12995,1997-08-18 14:55:00+00:00,1997-08-18 14:56:00+00:00,64.373,-60.055,,4.0,,920.0,,,,,14.8,3,,,
37,1997_12995,1997-08-18 15:04:00+00:00,1997-08-18 16:31:00+00:00,64.374,-60.049,,4.9,,920.0,,,,,14.8,3,,,
38,1997_12995,1997-08-18 16:43:00+00:00,1997-08-18 18:11:00+00:00,64.367,-60.057,,5.8,,920.0,,,,,14.8,1,,,
39,1997_12995,1997-08-18 18:26:00+00:00,1997-08-18 18:29:00+00:00,64.353,-60.114,,5.5,,920.0,,,,,14.8,3,,,
40,1997_12995,1997-08-18 19:49:00+00:00,1997-08-18 19:51:00+00:00,64.345,-60.157,,5.2,,920.0,,,,,14.8,2,,,
41,1997_12995,1997-08-18 20:05:00+00:00,1997-08-18 20:06:00+00:00,64.344,-60.162,,5.2,,920.0,,,,,14.8,1,,,
42,1997_12995,1997-08-18 21:29:00+00:00,1997-08-18 21:31:00+00:00,64.347,-60.184,,4.3,,920.0,,,,,14.8,3,,,
43,1997_12995,1997-08-18 23:11:00+00:00,1997-08-19 04:49:00+00:00,64.349,-60.195,,1.6,,920.0,,,,,14.8,3,,,
44,1997_12995,1997-08-19 06:35:00+00:00,1997-08-19 06:37:00+00:00,64.341,-60.172,,2.2,,920.0,,,,,14.8,2,,,
45,1997_12995,1997-08-19 08:14:00+00:00,1997-08-19 08:16:00+00:00,64.33,-60.204,,2.5,,920.0,,,,,14.8,3,,,
46,1997_12995,1997-08-19 09:33:00+00:00,1997-08-19 09:34:00+00:00,64.324,-60.231,,2.8,,920.0,,,,,14.8,3,,,
47,1997_12995,1997-08-19 09:55:00+00:00,1997-08-19 09:57:00+00:00,64.322,-60.243,,2.8,,920.0,,,,,14.8,3,,,
48,1997_12995,1997-08-19 11:13:00+00:00,1997-08-19 11:16:00+00:00,64.319,-60.256,,3.4,,920.0,,,,,14.8,3,,,
49,1997_12995,1997-08-19 11:35:00+00:00,1997-08-19 11:36:00+00:00,64.32,-60.27,,3.7,,920.0,,,,,14.8,1,,,
50,1997_12995,1997-08-19 12:54:00+00:00,1997-08-19 12:56:00+00:00,64.318,-60.259,,4.0,,920.0,,,,,14.8,3,,,
51,1997_12995,1997-08-19 13:14:00+00:00,1997-08-19 13:16:00+00:00,64.319,-60.257,,4.0,,920.0,,,,,14.8,1,,,
52,1997_12995,1997-08-19 14:32:00+00:00,1997-08-19 14:35:00+00:00,64.315,-60.245,,5.5,,920.0,,,,,14.8,2,,,
53,1997_12995,1997-08-19 14:54:00+00:00,1997-08-19 16:10:00+00:00,64.312,-60.251,,6.4,,920.0,,,,,14.8,1,,,
54,1997_12995,1997-08-19 16:32:00+00:00,1997-08-19 16:34:00+00:00,64.304,-60.253,,5.8,,920.0,,,,,14.8,3,,,
55,1997_12995,1997-08-19 17:50:00+00:00,1997-08-19 17:52:00+00:00,64.297,-60.264,,5.5,,920.0,,,,,14.8,2,,,
56,1997_12995,1997-08-19 18:13:00+00:00,1997-08-19 19:53:00+00:00,64.294,-60.278,,6.1,,920.0,,,,,14.8,2,,,
57,1997_12995,1997-08-19 19:29:00+00:00,1997-08-19 19:29:00+00:00,64.286,-60.308,,6.1,,920.0,,,,,14.8,1,,,
58,1997_12995,1997-08-19 19:56:00+00:00,1997-08-19 21:10:00+00:00,64.287,-60.318,,4.3,,920.0,,,,,14.8,2,,,
59,1997_12995,1997-08-19 22:48:00+00:00,1997-08-20 06:24:00+00:00,64.282,-60.379,,1.0,,920.0,,,,,14.8,2,,,
60,1997_12995,1997-08-20 08:04:00+00:00,1997-08-20 08:06:00+00:00,64.278,-60.362,,0.7,,920.0,,,,,14.8,3,,,
61,1997_12995,1997-08-20 09:44:00+00:00,1997-08-20 09:46:00+00:00,64.265,-60.393,,1.0,,920.0,,,,,14.8,3,,,
62,1997_12995,1997-08-20 10:51:00+00:00,1997-08-20 10:54:00+00:00,64.259,-60.418,,1.6,,920.0,,,,,14.8,3,,,
63,1997_12995,1997-08-20 11:23:00+00:00,1997-08-20 11:25:00+00:00,64.26,-60.412,,1.9,,920.0,,,,,14.8,2,,,
64,1997_12995,1997-08-20 12:31:00+00:00,1997-08-20 12:34:00+00:00,64.252,-60.43,,3.1,,920.0,,,,,14.8,3,,,
65,1997_12995,1997-08-20 13:04:00+00:00,1997-08-20 13:04:00+00:00,64.253,-60.425,,3.4,,920.0,,,,,14.8,2,,,
66,1997_12995,1997-08-20 14:11:00+00:00,1997-08-20 14:42:00+00:00,64.251,-60.426,,3.4,,920.0,,,,,14.8,3,,,
67,1997_12995,1997-08-20 15:50:00+00:00,1997-08-20 15:52:00+00:00,64.246,-60.423,,4.0,,920.0,,,,,14.8,1,,,
68,1997_12995,1997-08-20 16:23:00+00:00,1997-08-20 16:26:00+00:00,64.25,-60.401,,4.6,,920.0,,,,,14.8,2,,,
69,1997_12995,1997-08-20 17:28:00+00:00,1997-08-20 17:29:00+00:00,64.247,-60.416,,6.4,,920.0,,,,,14.8,1,,,
70,1997_12995,1997-08-20 18:01:00+00:00,1997-08-20 18:03:00+00:00,64.242,-60.422,,6.7,,920.0,,,,,14.8,2,,,
71,1997_12995,1997-08-20 19:05:00+00:00,1997-08-20 19:06:00+00:00,64.239,-60.439,,6.4,,920.0,,,,,14.8,2,,,
72,1997_12995,1997-08-20 19:46:00+00:00,1997-08-20 19:46:00+00:00,64.239,-60.454,,6.1,,920.0,,,,,14.8,1,,,
73,1997_12995,1997-08-20 20:43:00+00:00,1997-08-20 20:42:00+00:00,64.231,-60.481,,6.7,,920.0,,,,,14.8,1,,,
74,1997_12995,1997-08-20 22:25:00+00:00,1997-08-21 04:31:00+00:00,64.231,-60.506,,3.1,,920.0,,,,,14.6,2,,,
75,1997_12995,1997-08-21 06:12:00+00:00,1997-08-21 06:16:00+00:00,64.235,-60.468,,2.8,,920.0,,,,,14.6,2,,,
76,1997_12995,1997-08-21 07:55:00+00:00,1997-08-21 08:47:00+00:00,64.229,-60.476,,2.5,,920.0,,,,,14.6,2,,,
77,1997_12995,1997-08-21 09:35:00+00:00,1997-08-21 09:38:00+00:00,64.223,-60.512,,2.5,,920.0,,,,,14.6,2,,,
78,1997_12995,1997-08-21 10:29:00+00:00,1997-08-21 10:25:00+00:00,64.219,-60.541,,2.5,,920.0,,,,,14.6,3,,,
79,1997_12995,1997-08-21 11:16:00+00:00,1997-08-21 11:18:00+00:00,64.209,-60.56,,3.4,,920.0,,,,,14.6,1,,,
80,1997_12995,1997-08-21 12:10:00+00:00,1997-08-21 12:14:00+00:00,64.213,-60.556,,3.4,,920.0,,,,,14.6,2,,,
81,1997_12995,1997-08-21 12:54:00+00:00,1997-08-21 12:55:00+00:00,64.213,-60.553,,3.1,,920.0,,,,,14.6,1,,,
82,1997_12995,1997-08-21 13:49:00+00:00,1997-08-21 13:51:00+00:00,64.211,-60.563,,3.4,,920.0,,,,,14.6,3,,,
83,1997_12995,1997-08-21 14:32:00+00:00,1997-08-21 15:27:00+00:00,64.211,-60.552,,3.7,,920.0,,,,,14.6,2,,,
84,1997_12995,1997-08-21 16:11:00+00:00,1997-08-21 16:11:00+00:00,64.206,-60.552,,3.7,,920.0,,,,,14.6,3,,,
85,1997_12995,1997-08-21 17:06:00+00:00,1997-08-21 17:07:00+00:00,64.212,-60.555,,4.0,,920.0,,,,,14.6,1,,,
86,1997_12995,1997-08-21 17:51:00+00:00,1997-08-21 17:54:00+00:00,64.205,-60.554,,4.6,,920.0,,,,,14.6,2,,,
87,1997_12995,1997-08-21 18:42:00+00:00,1997-08-21 18:43:00+00:00,64.211,-60.563,,6.4,,920.0,,,,,14.6,2,,,
88,1997_12995,1997-08-21 19:34:00+00:00,1997-08-21 19:36:00+00:00,64.21,-60.574,,6.1,,920.0,,,,,14.6,3,,,
89,1997_12995,1997-08-21 20:23:00+00:00,1997-08-21 20:28:00+00:00,64.207,-60.589,,4.9,,920.0,,,,,14.6,3,,,
90,1997_12995,1997-08-21 22:04:00+00:00,1997-08-21 22:08:00+00:00,64.21,-60.615,,2.2,,920.0,,,,,14.6,3,,,
91,1997_12995,1997-08-21 23:45:00+00:00,1997-08-22 04:18:00+00:00,64.211,-60.651,,2.2,,920.0,,,,,14.6,2,,,
92,1997_12995,1997-08-22 06:02:00+00:00,1997-08-22 07:45:00+00:00,64.226,-60.578,,2.5,,920.0,,,,,14.6,3,,,
93,1997_12995,1997-08-22 09:22:00+00:00,1997-08-22 10:59:00+00:00,64.228,-60.606,,3.7,,920.0,,,,,14.6,3,,,
94,1997_12995,1997-08-22 10:07:00+00:00,1997-08-22 12:42:00+00:00,64.228,-60.619,,5.5,,920.0,,,,,14.6,3,,,
95,1997_12995,1997-08-22 13:27:00+00:00,1997-08-22 13:30:00+00:00,64.227,-60.634,,6.7,,920.0,,,,,14.6,3,,,
96,1997_12995,1997-08-22 14:22:00+00:00,1997-08-22 14:24:00+00:00,64.225,-60.623,,7.6,,920.0,,,,,14.6,3,,,
97,1997_12995,1997-08-22 15:06:00+00:00,1997-08-22 15:07:00+00:00,64.224,-60.622,,7.6,,920.0,,,,,14.6,3,,,
98,1997_12995,1997-08-22 16:01:00+00:00,1997-08-22 16:46:00+00:00,64.219,-60.602,,12.7,,920.0,,,,,14.6,3,,,
99,1997_12995,1997-08-22 17:41:00+00:00,1997-08-22 17:44:00+00:00,64.217,-60.592,,7.9,,920.0,,,,,14.6,3,,,
100,1997_12995,1997-08-22 18:24:00+00:00,1997-08-22 19:23:00+00:00,64.216,-60.589,,7.3,,920.0,,,,,14.6,3,,,
101,1997_12995,1997-08-22 20:01:00+00:00,1997-08-22 20:04:00+00:00,64.214,-60.601,,7.6,,920.0,,,,,14.6,2,,,
102,1997_12995,1997-08-22 21:41:00+00:00,1997-08-22 21:43:00+00:00,64.218,-60.619,,5.8,,920.0,,,,,14.6,3,,,
103,1997_12995,1997-08-22 23:21:00+00:00,1997-08-22 23:23:00+00:00,64.218,-60.646,,4.3,,920.0,,,,,14.6,2,,,
104,1997_12995,1997-08-23 05:50:00+00:00,1997-08-23 05:51:00+00:00,64.222,-60.604,,3.1,,920.0,,,,,14.6,3,,,
105,1997_12995,1997-08-23 07:30:00+00:00,1997-08-23 07:34:00+00:00,64.218,-60.601,,2.8,,920.0,,,,,14.6,1,,,
106,1997_12995,1997-08-23 09:09:00+00:00,1997-08-23 09:10:00+00:00,64.217,-60.632,,2.2,,920.0,,,,,14.6,1,,,
107,1997_12995,1997-08-23 09:45:00+00:00,1997-08-23 10:53:00+00:00,64.218,-60.639,,3.4,,920.0,,,,,14.6,3,,,
108,1997_12995,1997-08-23 11:27:00+00:00,1997-08-23 11:30:00+00:00,64.219,-60.671,,3.7,,920.0,,,,,14.6,2,,,
109,1997_12995,1997-08-23 12:31:00+00:00,1997-08-23 12:32:00+00:00,64.22,-60.677,,4.3,,920.0,,,,,14.6,2,,,
110,1997_12995,1997-08-23 13:06:00+00:00,1997-08-23 13:09:00+00:00,64.221,-60.681,,4.9,,920.0,,,,,14.6,3,,,
111,1997_12995,1997-08-23 14:10:00+00:00,1997-08-23 14:11:00+00:00,64.221,-60.671,,-2.9,,920.0,,,,,14.6,2,,,
112,1997_12995,1997-08-23 14:45:00+00:00,1997-08-23 14:48:00+00:00,64.224,-60.673,,7.3,,920.0,,,,,14.6,2,,,
113,1997_12995,1997-08-23 15:50:00+00:00,1997-08-23 15:54:00+00:00,64.221,-60.658,,7.3,,920.0,,,,,14.6,3,,,
114,1997_12995,1997-08-23 16:23:00+00:00,1997-08-23 16:24:00+00:00,64.222,-60.66,,7.6,,920.0,,,,,14.6,2,,,
115,1997_12995,1997-08-23 17:31:00+00:00,1997-08-23 17:33:00+00:00,64.218,-60.65,,7.6,,920.0,,,,,14.6,2,,,
116,1997_12995,1997-08-23 18:02:00+00:00,1997-08-23 18:04:00+00:00,64.221,-60.637,,8.2,,920.0,,,,,14.6,3,,,
117,1997_12995,1997-08-23 19:12:00+00:00,1997-08-23 19:13:00+00:00,64.22,-60.632,,8.5,,920.0,,,,,14.6,2,,,
118,1997_12995,1997-08-23 19:40:00+00:00,1997-08-23 19:43:00+00:00,64.22,-60.64,,8.5,,920.0,,,,,14.6,3,,,
119,1997_12995,1997-08-23 21:18:00+00:00,1997-08-23 21:21:00+00:00,64.226,-60.643,,7.0,,920.0,,,,,14.6,1,,,
120,1997_12995,1997-08-23 23:02:00+00:00,1997-08-24 05:41:00+00:00,64.233,-60.677,,2.2,,920.0,,,,,14.6,2,,,
121,1997_12995,1997-08-24 07:21:00+00:00,1997-08-24 07:23:00+00:00,64.252,-60.613,,2.2,,920.0,,,,,14.6,2,,,
122,1997_12995,1997-08-24 09:01:00+00:00,1997-08-24 09:24:00+00:00,64.25,-60.623,,2.8,,920.0,,,,,14.6,2,,,
123,1997_12995,1997-08-24 10:41:00+00:00,1997-08-24 10:43:00+00:00,64.248,-60.642,,3.7,,920.0,,,,,14.6,3,,,
124,1997_12995,1997-08-24 11:04:00+00:00,1997-08-24 12:19:00+00:00,64.249,-60.643,,5.8,,920.0,,,,,14.6,2,,,
125,1997_12995,1997-08-24 12:43:00+00:00,1997-08-24 12:47:00+00:00,64.255,-60.68,,6.7,,920.0,,,,,14.6,3,,,
126,1997_12995,1997-08-24 14:00:00+00:00,1997-08-24 14:02:00+00:00,64.257,-60.685,,7.0,,920.0,,,,,14.6,2,,,
127,1997_12995,1997-08-24 14:24:00+00:00,1997-08-24 14:26:00+00:00,64.257,-60.679,,6.7,,920.0,,,,,14.6,2,,,
128,1997_12995,1997-08-24 15:37:00+00:00,1997-08-24 15:40:00+00:00,64.26,-60.665,,6.7,,920.0,,,,,14.6,3,,,
129,1997_12995,1997-08-24 16:04:00+00:00,1997-08-24 16:05:00+00:00,64.247,-60.675,,6.7,,920.0,,,,,14.6,1,,,
130,1997_12995,1997-08-24 17:20:00+00:00,1997-08-24 17:40:00+00:00,64.26,-60.647,,6.7,,920.0,,,,,14.6,1,,,
131,1997_12995,1997-08-24 19:00:00+00:00,1997-08-24 19:03:00+00:00,64.26,-60.616,,6.4,,920.0,,,,,14.6,3,,,
132,1997_12995,1997-08-24 19:19:00+00:00,1997-08-24 20:42:00+00:00,64.261,-60.615,,6.1,,920.0,,,,,14.6,3,,,
133,1997_12995,1997-08-24 20:58:00+00:00,1997-08-24 22:34:00+00:00,64.262,-60.61,,4.3,,920.0,,,,,14.6,1,,,
134,1997_12995,1997-08-24 22:39:00+00:00,1997-08-24 22:41:00+00:00,64.263,-60.626,,4.3,,920.0,,,,,14.6,3,,,
135,1997_12995,1997-08-25 05:28:00+00:00,1997-08-25 05:31:00+00:00,64.28,-60.609,,5.5,,920.0,,,,,14.6,3,,,
136,1997_12995,1997-08-25 07:08:00+00:00,1997-08-25 07:11:00+00:00,64.276,-60.585,,5.2,,920.0,,,,,14.6,3,,,
137,1997_12995,1997-08-25 08:50:00+00:00,1997-08-25 09:02:00+00:00,64.268,-60.575,,5.5,,920.0,,,,,14.6,3,,,
138,1997_12995,1997-08-25 10:29:00+00:00,1997-08-25 10:32:00+00:00,64.257,-60.595,,4.6,,920.0,,,,,14.6,3,,,
139,1997_12995,1997-08-25 10:41:00+00:00,1997-08-25 10:42:00+00:00,64.261,-60.598,,4.3,,920.0,,,,,14.6,3,,,
140,1997_12995,1997-08-25 12:10:00+00:00,1997-08-25 12:12:00+00:00,64.253,-60.617,,3.4,,920.0,,,,,14.6,2,,,
141,1997_12995,1997-08-25 12:22:00+00:00,1997-08-25 12:27:00+00:00,64.255,-60.624,,3.4,,920.0,,,,,14.6,3,,,
142,1997_12995,1997-08-25 13:49:00+00:00,1997-08-25 13:51:00+00:00,64.253,-60.651,,2.8,,939.34,,,,,14.4,2,,,
143,1997_12995,1997-08-25 14:01:00+00:00,1997-08-25 14:04:00+00:00,64.257,-60.662,,4.0,,920.0,,,,,14.6,3,,,
144,1997_12995,1997-08-25 15:27:00+00:00,1997-08-25 15:28:00+00:00,64.257,-60.671,,4.0,,920.0,,,,,14.6,3,,,
145,1997_12995,1997-08-25 15:40:00+00:00,1997-08-25 15:41:00+00:00,64.259,-60.676,,4.0,,920.0,,,,,14.6,2,,,
146,1997_12995,1997-08-25 17:07:00+00:00,1997-08-25 17:10:00+00:00,64.263,-60.666,,4.0,,920.0,,,,,14.4,1,,,
147,1997_12995,1997-08-25 17:18:00+00:00,1997-08-25 17:20:00+00:00,64.265,-60.664,,4.3,,920.0,,,,,14.4,3,,,
148,1997_12995,1997-08-25 18:49:00+00:00,1997-08-25 18:53:00+00:00,64.264,-60.655,,4.0,,920.0,,,,,14.4,3,,,
149,1997_12995,1997-08-25 18:58:00+00:00,1997-08-25 19:00:00+00:00,64.268,-60.652,,4.0,,920.0,,,,,14.4,2,,,
150,1997_12995,1997-08-25 20:36:00+00:00,1997-08-25 20:33:00+00:00,64.267,-60.646,,4.0,,920.0,,,,,14.4,3,,,
151,1997_12995,1997-08-25 22:16:00+00:00,1997-08-25 22:21:00+00:00,64.268,-60.65,,3.4,,920.0,,,,,14.4,3,,,
152,1997_12995,1997-08-25 23:59:00+00:00,1997-08-26 05:21:00+00:00,64.27,-60.658,,1.6,,920.0,,,,,14.4,2,,,
153,1997_12995,1997-08-26 06:58:00+00:00,1997-08-26 07:01:00+00:00,64.278,-60.651,,1.9,,920.0,,,,,14.4,3,,,
154,1997_12995,1997-08-26 08:39:00+00:00,1997-08-26 08:36:00+00:00,64.277,-60.633,,1.9,,920.0,,,,,14.4,3,,,
155,1997_12995,1997-08-26 10:19:00+00:00,1997-08-26 10:22:00+00:00,64.274,-60.622,,2.8,,920.0,,,,,14.4,3,,,
156,1997_12995,1997-08-26 10:20:00+00:00,1997-08-26 10:20:00+00:00,64.272,-60.629,,2.8,,920.0,,,,,14.4,3,,,
157,1997_12995,1997-08-26 11:58:00+00:00,1997-08-26 12:01:00+00:00,64.269,-60.646,,3.1,,920.0,,,,,14.4,2,,,
158,1997_12995,1997-08-26 12:01:00+00:00,1997-08-26 12:02:00+00:00,64.271,-60.641,,3.1,,920.0,,,,,14.4,3,,,
159,1997_12995,1997-08-26 13:39:00+00:00,1997-08-26 13:39:00+00:00,64.268,-60.651,,3.7,,920.0,,,,,14.4,2,,,
160,1997_12995,1997-08-26 15:17:00+00:00,1997-08-26 15:20:00+00:00,64.27,-60.66,,4.3,,920.0,,,,,14.4,3,,,
161,1997_12995,1997-08-26 15:19:00+00:00,1997-08-26 15:21:00+00:00,64.271,-60.661,,4.3,,920.0,,,,,14.4,1,,,
162,1997_12995,1997-08-26 16:56:00+00:00,1997-08-26 16:57:00+00:00,64.279,-60.64,,4.9,,920.0,,,,,14.4,2,,,
163,1997_12995,1997-08-26 18:36:00+00:00,1997-08-26 18:37:00+00:00,64.281,-60.648,,5.8,,920.0,,,,,14.4,2,,,
164,1997_12995,1997-08-26 18:38:00+00:00,1997-08-26 18:37:00+00:00,64.284,-60.648,,5.8,,920.0,,,,,14.4,3,,,
165,1997_12995,1997-08-26 20:14:00+00:00,1997-08-26 20:19:00+00:00,64.29,-60.625,,5.2,,920.0,,,,,14.4,3,,,
166,1997_12995,1997-08-26 21:55:00+00:00,1997-08-26 21:59:00+00:00,64.294,-60.601,,4.3,,920.0,,,,,14.4,3,,,
167,1997_12995,1997-08-26 23:36:00+00:00,1997-08-27 03:22:00+00:00,64.295,-60.592,,3.4,,924.84,,,,,15.2,1,,,
168,1997_12995,1997-08-27 05:06:00+00:00,1997-08-27 05:08:00+00:00,64.3,-60.614,,3.1,,920.0,,,,,14.4,3,,,
169,1997_12995,1997-08-27 06:48:00+00:00,1997-08-27 06:51:00+00:00,64.3,-60.609,,2.5,,920.0,,,,,14.4,2,,,
170,1997_12995,1997-08-27 08:29:00+00:00,1997-08-27 08:35:00+00:00,64.3,-60.605,,2.5,,920.0,,,,,14.4,3,,,
171,1997_12995,1997-08-27 09:57:00+00:00,1997-08-27 09:59:00+00:00,64.3,-60.598,,2.5,,920.0,,,,,14.4,3,,,
172,1997_12995,1997-08-27 10:10:00+00:00,1997-08-27 11:40:00+00:00,64.3,-60.592,,2.8,,920.0,,,,,14.4,2,,,
173,1997_12995,1997-08-27 11:48:00+00:00,1997-08-27 11:49:00+00:00,64.294,-60.586,,2.8,,920.0,,,,,14.4,2,,,
174,1997_12995,1997-08-27 13:18:00+00:00,1997-08-27 14:56:00+00:00,64.287,-60.608,,3.1,,920.0,,,,,14.4,3,,,
175,1997_12995,1997-08-27 15:05:00+00:00,1997-08-27 16:35:00+00:00,64.283,-60.639,,3.4,,920.0,,,,,14.4,3,,,
176,1997_12995,1997-08-27 16:46:00+00:00,1997-08-27 16:49:00+00:00,64.282,-60.667,,3.7,,920.0,,,,,14.4,2,,,
177,1997_12995,1997-08-27 18:14:00+00:00,1997-08-27 18:16:00+00:00,64.283,-60.669,,4.0,,920.0,,,,,14.4,3,,,
178,1997_12995,1997-08-27 18:27:00+00:00,1997-08-27 18:30:00+00:00,64.285,-60.68,,4.0,,920.0,,,,,14.4,3,,,
179,1997_12995,1997-08-27 19:53:00+00:00,1997-08-27 20:08:00+00:00,64.287,-60.68,,3.7,,920.0,,,,,14.4,3,,,
180,1997_12995,1997-08-27 21:32:00+00:00,1997-08-27 21:35:00+00:00,64.294,-60.668,,2.8,,920.0,,,,,14.4,2,,,
181,1997_12995,1997-08-27 23:13:00+00:00,1997-08-28 04:52:00+00:00,64.299,-60.667,,1.0,,920.0,,,,,14.4,2,,,
182,1997_12995,1997-08-28 06:36:00+00:00,1997-08-28 06:40:00+00:00,64.299,-60.709,,0.4,,920.0,,,,,14.4,3,,,
183,1997_12995,1997-08-28 08:17:00+00:00,1997-08-28 08:20:00+00:00,64.299,-60.718,,-1.1,,920.0,,,,,14.4,3,,,
184,1997_12995,1997-08-28 09:36:00+00:00,1997-08-28 09:39:00+00:00,64.299,-60.717,,-0.2,,920.0,,,,,14.4,1,,,
185,1997_12995,1997-08-28 09:56:00+00:00,1997-08-28 09:58:00+00:00,64.295,-60.72,,0.1,,920.0,,,,,14.4,3,,,
186,1997_12995,1997-08-28 11:15:00+00:00,1997-08-28 11:34:00+00:00,64.295,-60.716,,1.9,,920.0,,,,,14.4,2,,,
187,1997_12995,1997-08-28 12:57:00+00:00,1997-08-28 13:15:00+00:00,64.295,-60.722,,3.4,,920.0,,,,,14.4,3,,,
188,1997_12995,1997-08-28 14:37:00+00:00,1997-08-28 14:39:00+00:00,64.288,-60.74,,3.7,,920.0,,,,,14.4,3,,,
189,1997_12995,1997-08-28 14:55:00+00:00,1997-08-28 14:57:00+00:00,64.292,-60.742,,3.7,,920.0,,,,,14.4,2,,,
190,1997_12995,1997-08-28 16:15:00+00:00,1997-08-28 16:17:00+00:00,64.287,-60.762,,4.0,,920.0,,,,,14.4,2,,,
191,1997_12995,1997-08-28 16:34:00+00:00,1997-08-28 16:36:00+00:00,64.288,-60.757,,3.7,,920.0,,,,,14.4,3,,,
192,1997_12995,1997-08-28 17:52:00+00:00,1997-08-28 17:53:00+00:00,64.286,-60.78,,3.4,,920.0,,,,,14.4,2,,,
193,1997_12995,1997-08-28 18:16:00+00:00,1997-08-28 18:21:00+00:00,64.284,-60.773,,3.1,,920.0,,,,,14.4,2,,,
194,1997_12995,1997-08-28 19:31:00+00:00,1997-08-28 21:15:00+00:00,64.285,-60.773,,2.8,,920.0,,,,,14.4,2,,,
195,1997_12995,1997-08-28 22:51:00+00:00,1997-08-29 04:41:00+00:00,64.301,-60.75,,1.6,,920.0,,,,,14.4,3,,,
196,1997_12995,1997-08-29 06:25:00+00:00,1997-08-29 06:28:00+00:00,64.32,-60.705,,2.2,,920.0,,,,,14.4,2,,,
197,1997_12995,1997-08-29 08:06:00+00:00,1997-08-29 09:14:00+00:00,64.315,-60.71,,2.8,,920.0,,,,,14.4,2,,,
198,1997_12995,1997-08-29 09:47:00+00:00,1997-08-29 09:50:00+00:00,64.316,-60.72,,2.8,,920.0,,,,,14.4,3,,,
199,1997_12995,1997-08-29 10:54:00+00:00,1997-08-29 12:38:00+00:00,64.315,-60.713,,5.2,,920.0,,,,,14.4,3,,,
200,1997_12995,1997-08-29 12:35:00+00:00,1997-08-29 12:38:00+00:00,64.316,-60.717,,5.2,,920.0,,,,,14.4,3,,,
201,1997_12995,1997-08-29 13:05:00+00:00,1997-08-29 13:06:00+00:00,64.321,-60.712,,5.5,,920.0,,,,,14.4,1,,,
202,1997_12995,1997-08-29 14:16:00+00:00,1997-08-29 14:18:00+00:00,64.32,-60.717,,5.2,,920.0,,,,,14.4,3,,,
203,1997_12995,1997-08-29 14:42:00+00:00,1997-08-29 15:55:00+00:00,64.316,-60.722,,4.6,,920.0,,,,,14.4,1,,,
204,1997_12995,1997-08-29 16:24:00+00:00,1997-08-29 16:22:00+00:00,64.319,-60.732,,4.6,,920.0,,,,,14.4,3,,,
205,1997_12995,1997-08-29 17:30:00+00:00,1997-08-29 17:32:00+00:00,64.32,-60.741,,4.9,,920.0,,,,,14.4,3,,,
206,1997_12995,1997-08-29 18:03:00+00:00,1997-08-29 19:10:00+00:00,64.319,-60.739,,4.6,,920.0,,,,,14.4,3,,,
207,1997_12995,1997-08-29 19:47:00+00:00,1997-08-29 19:48:00+00:00,64.312,-60.757,,4.6,,920.0,,,,,14.4,1,,,
208,1997_12995,1997-08-29 20:49:00+00:00,1997-08-29 20:54:00+00:00,64.321,-60.759,,4.3,,920.0,,,,,14.4,1,,,
209,1997_12995,1997-08-29 22:30:00+00:00,1997-08-30 04:30:00+00:00,64.33,-60.746,,3.1,,920.0,,,,,14.4,2,,,
210,1997_12995,1997-08-30 06:12:00+00:00,1997-08-30 06:15:00+00:00,64.346,-60.711,,2.8,,920.0,,,,,14.4,3,,,
211,1997_12995,1997-08-30 07:56:00+00:00,1997-08-30 08:49:00+00:00,64.338,-60.725,,1.6,,920.0,,,,,14.4,1,,,
212,1997_12995,1997-08-30 09:35:00+00:00,1997-08-30 09:37:00+00:00,64.334,-60.733,,1.3,,920.0,,,,,14.4,3,,,
213,1997_12995,1997-08-30 10:31:00+00:00,1997-08-30 11:14:00+00:00,64.331,-60.729,,1.9,,920.0,,,,,14.4,3,,,
214,1997_12995,1997-08-30 12:14:00+00:00,1997-08-30 12:56:00+00:00,64.335,-60.736,,3.1,,920.0,,,,,14.4,2,,,
215,1997_12995,1997-08-30 13:51:00+00:00,1997-08-30 13:55:00+00:00,64.333,-60.732,,4.9,,920.0,,,,,14.4,2,,,
216,1997_12995,1997-08-30 14:36:00+00:00,1997-08-30 14:37:00+00:00,64.332,-60.739,,5.5,,920.0,,,,,14.4,2,,,
217,1997_12995,1997-08-30 15:33:00+00:00,1997-08-30 15:33:00+00:00,64.327,-60.748,,5.8,,920.0,,,,,14.4,1,,,
218,1997_12995,1997-08-30 16:15:00+00:00,1997-08-30 16:19:00+00:00,64.335,-60.752,,6.1,,920.0,,,,,14.4,2,,,
219,1997_12995,1997-08-30 17:09:00+00:00,1997-08-30 17:11:00+00:00,64.333,-60.761,,6.4,,920.0,,,,,14.4,2,,,
220,1997_12995,1997-08-30 17:55:00+00:00,1997-08-30 17:58:00+00:00,64.334,-60.773,,7.0,,920.0,,,,,14.4,3,,,
221,1997_12995,1997-08-30 18:49:00+00:00,1997-08-30 19:37:00+00:00,64.335,-60.788,,6.4,,920.0,,,,,14.4,2,,,
222,1997_12995,1997-08-30 20:28:00+00:00,1997-08-30 20:30:00+00:00,64.339,-60.796,,4.9,,920.0,,,,,14.4,1,,,
223,1997_12995,1997-08-30 22:08:00+00:00,1997-08-30 22:10:00+00:00,64.347,-60.8,,3.7,,920.0,,,,,14.4,3,,,
224,1997_12995,1997-08-30 23:47:00+00:00,1997-08-30 23:49:00+00:00,64.356,-60.794,,3.1,,920.0,,,,,14.4,2,,,
225,1997_12995,1997-08-31 06:02:00+00:00,1997-08-31 08:28:00+00:00,64.395,-60.781,,3.4,,920.0,,,,,14.4,3,,,
226,1997_12995,1997-08-31 09:24:00+00:00,1997-08-31 09:28:00+00:00,64.405,-60.796,,3.4,,920.0,,,,,14.4,2,,,
227,1997_12995,1997-08-31 10:10:00+00:00,1997-08-31 10:14:00+00:00,64.402,-60.793,,3.1,,920.0,,,,,14.4,2,,,
228,1997_12995,1997-08-31 11:06:00+00:00,1997-08-31 11:09:00+00:00,64.408,-60.796,,3.1,,920.0,,,,,14.4,2,,,
229,1997_12995,1997-08-31 11:51:00+00:00,1997-08-31 12:41:00+00:00,64.406,-60.78,,3.7,,920.0,,,,,14.4,1,,,
230,1997_12995,1997-08-31 13:30:00+00:00,1997-08-31 13:33:00+00:00,64.412,-60.782,,4.3,,920.0,,,,,14.4,3,,,
231,1997_12995,1997-08-31 14:22:00+00:00,1997-08-31 14:23:00+00:00,64.416,-60.782,,4.3,,920.0,,,,,14.4,2,,,
232,1997_12995,1997-08-31 15:10:00+00:00,1997-08-31 15:12:00+00:00,64.419,-60.787,,4.6,,920.0,,,,,14.4,1,,,
233,1997_12995,1997-08-31 16:00:00+00:00,1997-08-31 16:49:00+00:00,64.425,-60.789,,5.2,,920.0,,,,,14.4,3,,,
234,1997_12995,1997-08-31 17:43:00+00:00,1997-08-31 18:23:00+00:00,64.435,-60.806,,5.5,,920.0,,,,,14.4,3,,,
235,1997_12995,1997-08-31 19:25:00+00:00,1997-08-31 19:27:00+00:00,64.446,-60.826,,4.9,,939.34,,,,,14.4,2,,,
236,1997_12995,1997-08-31 20:04:00+00:00,1997-08-31 20:07:00+00:00,64.446,-60.84,,5.2,,920.0,,,,,14.4,3,,,
237,1997_12995,1997-08-31 21:45:00+00:00,1997-08-31 21:50:00+00:00,64.46,-60.834,,4.9,,920.0,,,,,14.4,3,,,
238,1997_12995,1997-08-31 23:25:00+00:00,1997-09-01 04:06:00+00:00,64.471,-60.82,,3.4,,920.0,,,,,14.4,3,,,
239,1997_12995,1997-09-01 05:52:00+00:00,1997-09-01 05:55:00+00:00,64.533,-60.802,,3.4,,920.0,,,,,14.2,3,,,
240,1997_12995,1997-09-01 07:34:00+00:00,1997-09-01 07:35:00+00:00,64.541,-60.801,,3.1,,920.0,,,,,14.2,2,,,
241,1997_12995,1997-09-01 09:14:00+00:00,1997-09-01 10:50:00+00:00,64.553,-60.831,,3.7,,920.0,,,,,14.2,2,,,
242,1997_12995,1997-09-01 09:49:00+00:00,1997-09-01 10:51:00+00:00,64.555,-60.816,,3.7,,920.0,,,,,14.2,3,,,
243,1997_12995,1997-09-01 11:29:00+00:00,1997-09-01 11:33:00+00:00,64.561,-60.787,,4.0,,920.0,,,,,14.2,1,,,
244,1997_12995,1997-09-01 12:31:00+00:00,1997-09-01 12:31:00+00:00,64.576,-60.798,,4.3,,920.0,,,,,14.2,2,,,
245,1997_12995,1997-09-01 13:11:00+00:00,1997-09-01 14:44:00+00:00,64.575,-60.793,,5.2,,920.0,,,,,14.4,2,,,
246,1997_12995,1997-09-01 15:51:00+00:00,1997-09-01 16:24:00+00:00,64.597,-60.768,,5.5,,920.0,,,,,14.2,3,,,
247,1997_12995,1997-09-01 17:31:00+00:00,1997-09-01 18:03:00+00:00,64.605,-60.765,,5.2,,920.0,,,,,14.4,2,,,
248,1997_12995,1997-09-01 19:13:00+00:00,1997-09-01 19:15:00+00:00,64.615,-60.779,,4.3,,920.0,,,,,14.2,2,,,
249,1997_12995,1997-09-01 19:42:00+00:00,1997-09-01 20:53:00+00:00,64.615,-60.789,,4.3,,920.0,,,,,14.2,3,,,
250,1997_12995,1997-09-01 21:24:00+00:00,1997-09-01 21:28:00+00:00,64.628,-60.778,,4.3,,920.0,,,,,14.2,1,,,
251,1997_12995,1997-09-01 23:01:00+00:00,1997-09-02 00:44:00+00:00,64.636,-60.786,,4.0,,920.0,,,,,14.2,2,,,
252,1997_12995,1997-09-02 05:41:00+00:00,1997-09-02 05:42:00+00:00,64.68,-60.692,,3.4,,920.0,,,,,14.2,2,,,
253,1997_12995,1997-09-02 07:24:00+00:00,1997-09-02 07:25:00+00:00,64.677,-60.709,,3.7,,920.0,,,,,14.2,3,,,
254,1997_12995,1997-09-02 09:03:00+00:00,1997-09-02 09:07:00+00:00,64.672,-60.721,,4.0,,920.0,,,,,14.2,3,,,
255,1997_12995,1997-09-02 09:23:00+00:00,1997-09-02 09:23:00+00:00,64.672,-60.715,,4.0,,920.0,,,,,14.2,2,,,
256,1997_12995,1997-09-02 10:44:00+00:00,1997-09-02 10:44:00+00:00,64.683,-60.726,,4.3,,920.0,,,,,14.2,2,,,
257,1997_12995,1997-09-02 11:07:00+00:00,1997-09-02 11:11:00+00:00,64.674,-60.721,,4.6,,920.0,,,,,14.2,3,,,
258,1997_12995,1997-09-02 12:22:00+00:00,1997-09-02 12:23:00+00:00,64.68,-60.732,,4.9,,920.0,,,,,14.2,2,,,
259,1997_12995,1997-09-02 12:47:00+00:00,1997-09-02 14:00:00+00:00,64.685,-60.718,,4.6,,920.0,,,,,14.2,3,,,
260,1997_12995,1997-09-02 14:27:00+00:00,1997-09-02 14:28:00+00:00,64.696,-60.707,,4.6,,920.0,,,,,14.2,3,,,
261,1997_12995,1997-09-02 15:38:00+00:00,1997-09-02 15:39:00+00:00,64.702,-60.692,,4.9,,920.0,,,,,14.2,2,,,
262,1997_12995,1997-09-02 16:05:00+00:00,1997-09-02 16:07:00+00:00,64.708,-60.694,,4.6,,920.0,,,,,14.2,2,,,
263,1997_12995,1997-09-02 17:22:00+00:00,1997-09-02 17:44:00+00:00,64.709,-60.682,,4.3,,920.0,,,,,14.2,3,,,
264,1997_12995,1997-09-02 19:03:00+00:00,1997-09-02 19:07:00+00:00,64.709,-60.691,,4.0,,920.0,,,,,14.2,3,,,
265,1997_12995,1997-09-02 19:23:00+00:00,1997-09-02 20:46:00+00:00,64.711,-60.696,,4.0,,922.42,,,,,14.2,2,,,
266,1997_12995,1997-09-02 21:02:00+00:00,1997-09-02 22:36:00+00:00,64.708,-60.724,,3.7,,920.0,,,,,14.2,1,,,
267,1997_12995,1997-09-02 22:41:00+00:00,1997-09-03 03:46:00+00:00,64.717,-60.721,,3.4,,920.0,,,,,14.2,3,,,
268,1997_12995,1997-09-03 05:29:00+00:00,1997-09-03 05:31:00+00:00,64.762,-60.666,,2.8,,920.0,,,,,14.2,2,,,
269,1997_12995,1997-09-03 07:12:00+00:00,1997-09-03 07:14:00+00:00,64.755,-60.675,,21.4,,920.0,,,,,14.2,3,,,
270,1997_12995,1997-09-03 08:50:00+00:00,1997-09-03 09:06:00+00:00,64.747,-60.704,,2.5,,920.0,,,,,14.2,3,,,
271,1997_12995,1997-09-03 10:31:00+00:00,1997-09-03 10:34:00+00:00,64.746,-60.734,,2.5,,920.0,,,,,14.2,3,,,
272,1997_12995,1997-09-03 10:44:00+00:00,1997-09-03 10:45:00+00:00,64.742,-60.736,,2.5,,920.0,,,,,14.2,2,,,
273,1997_12995,1997-09-03 12:11:00+00:00,1997-09-03 12:13:00+00:00,64.747,-60.755,,2.5,,920.0,,,,,14.2,2,,,
274,1997_12995,1997-09-03 12:24:00+00:00,1997-09-03 12:28:00+00:00,64.745,-60.751,,2.5,,920.0,,,,,14.2,3,,,
275,1997_12995,1997-09-03 13:48:00+00:00,1997-09-03 13:49:00+00:00,64.761,-60.749,,3.1,,920.0,,,,,14.2,1,,,
276,1997_12995,1997-09-03 14:04:00+00:00,1997-09-03 15:41:00+00:00,64.757,-60.745,,4.6,,920.0,,,,,14.2,3,,,
277,1997_12995,1997-09-03 17:10:00+00:00,1997-09-03 17:14:00+00:00,64.772,-60.712,,5.2,,920.0,,,,,14.2,1,,,
278,1997_12995,1997-09-03 17:24:00+00:00,1997-09-03 17:24:00+00:00,64.76,-60.743,,5.2,,920.0,,,,,14.2,1,,,
279,1997_12995,1997-09-03 18:52:00+00:00,1997-09-03 18:57:00+00:00,64.772,-60.721,,4.9,,920.0,,,,,14.2,2,,,
280,1997_12995,1997-09-03 19:02:00+00:00,1997-09-03 19:03:00+00:00,64.77,-60.718,,4.9,,920.0,,,,,14.2,2,,,
281,1997_12995,1997-09-03 20:38:00+00:00,1997-09-03 20:42:00+00:00,64.765,-60.745,,4.3,,920.0,,,,,14.2,3,,,
282,1997_12995,1997-09-03 22:18:00+00:00,1997-09-04 05:19:00+00:00,64.764,-60.769,,2.2,,920.0,,,,,14.2,3,,,
283,1997_12995,1997-09-04 07:03:00+00:00,1997-09-04 07:04:00+00:00,64.806,-60.78,,2.8,,920.0,,,,,14.2,1,,,
284,1997_12995,1997-09-04 08:41:00+00:00,1997-09-04 08:40:00+00:00,64.795,-60.8,,2.8,,920.0,,,,,14.2,2,,,
285,1997_12995,1997-09-04 10:21:00+00:00,1997-09-04 10:23:00+00:00,64.789,-60.847,,2.5,,920.0,,,,,14.2,2,,,
286,1997_12995,1997-09-04 10:22:00+00:00,1997-09-04 10:23:00+00:00,64.789,-60.85,,2.5,,920.0,,,,,14.2,3,,,
287,1997_12995,1997-09-04 12:01:00+00:00,1997-09-04 12:03:00+00:00,64.791,-60.892,,2.5,,920.0,,,,,14.2,1,,,
288,1997_12995,1997-09-04 12:03:00+00:00,1997-09-04 13:38:00+00:00,64.791,-60.892,,3.1,,920.0,,,,,14.2,3,,,
289,1997_12995,1997-09-04 13:42:00+00:00,1997-09-04 13:44:00+00:00,64.799,-60.902,,3.1,,920.0,,,,,14.2,3,,,
290,1997_12995,1997-09-04 15:20:00+00:00,1997-09-04 15:20:00+00:00,64.811,-60.897,,4.0,,920.0,,,,,14.2,3,,,
291,1997_12995,1997-09-04 16:57:00+00:00,1997-09-04 16:58:00+00:00,64.828,-60.844,,4.3,,920.0,,,,,14.2,1,,,
292,1997_12995,1997-09-04 18:37:00+00:00,1997-09-04 18:39:00+00:00,64.816,-60.91,,4.9,,920.0,,,,,14.2,3,,,
293,1997_12995,1997-09-04 18:39:00+00:00,1997-09-04 20:16:00+00:00,64.816,-60.912,,5.2,,920.0,,,,,14.2,2,,,
294,1997_12995,1997-09-04 20:23:00+00:00,1997-09-04 20:23:00+00:00,64.806,-60.955,,5.2,,920.0,,,,,14.2,2,,,
295,1997_12995,1997-09-04 21:58:00+00:00,1997-09-04 22:02:00+00:00,64.806,-60.982,,3.7,,920.0,,,,,14.2,3,,,
296,1997_12995,1997-09-04 23:39:00+00:00,1997-09-05 01:18:00+00:00,64.806,-61.02,,1.3,,920.0,,,,,14.2,2,,,
297,1997_12995,1997-09-05 06:49:00+00:00,1997-09-05 08:27:00+00:00,64.816,-61.05,,1.3,,920.0,,,,,14.2,3,,,
298,1997_12995,1997-09-05 08:29:00+00:00,1997-09-05 08:30:00+00:00,64.798,-61.081,,1.3,,920.0,,,,,14.2,2,,,
299,1997_12995,1997-09-05 09:59:00+00:00,1997-09-05 10:02:00+00:00,64.782,-61.129,,1.3,,920.0,,,,,14.2,3,,,
300,1997_12995,1997-09-05 10:12:00+00:00,1997-09-05 11:43:00+00:00,64.781,-61.126,,1.6,,920.0,,,,,14.2,2,,,
301,1997_12995,1997-09-05 11:51:00+00:00,1997-09-05 11:54:00+00:00,64.769,-61.174,,1.6,,920.0,,,,,14.2,2,,,
302,1997_12995,1997-09-05 13:22:00+00:00,1997-09-05 13:25:00+00:00,64.758,-61.196,,1.9,,920.0,,,,,14.2,3,,,
303,1997_12995,1997-09-05 13:29:00+00:00,1997-09-05 13:30:00+00:00,64.76,-61.207,,1.9,,920.0,,,,,14.2,1,,,
304,1997_12995,1997-09-05 15:02:00+00:00,1997-09-05 15:03:00+00:00,64.754,-61.198,,1.6,,920.0,,,,,14.2,1,,,
305,1997_12995,1997-09-05 15:07:00+00:00,1997-09-05 15:08:00+00:00,64.756,-61.198,,1.6,,920.0,,,,,14.2,3,,,
306,1997_12995,1997-09-05 16:38:00+00:00,1997-09-05 16:40:00+00:00,64.759,-61.205,,2.5,,920.0,,,,,14.2,3,,,
307,1997_12995,1997-09-05 16:47:00+00:00,1997-09-05 18:16:00+00:00,64.758,-61.199,,1.9,,920.0,,,,,14.2,2,,,
308,1997_12995,1997-09-05 18:28:00+00:00,1997-09-05 18:32:00+00:00,64.751,-61.215,,1.9,,920.0,,,,,14.2,2,,,
309,1997_12995,1997-09-05 19:56:00+00:00,1997-09-05 20:00:00+00:00,64.745,-61.24,,2.5,,920.0,,,,,14.2,2,,,
310,1997_12995,1997-09-05 20:12:00+00:00,1997-09-05 20:15:00+00:00,64.744,-61.249,,2.2,,920.0,,,,,14.2,2,,,
311,1997_12995,1997-09-05 21:35:00+00:00,1997-09-05 21:38:00+00:00,64.734,-61.284,,1.6,,920.0,,,,,14.2,2,,,
312,1997_12995,1997-09-05 23:15:00+00:00,1997-09-06 00:58:00+00:00,64.72,-61.308,,1.0,,920.0,,,,,14.2,2,,,
313,1997_12995,1997-09-06 06:37:00+00:00,1997-09-06 06:38:00+00:00,64.699,-61.292,,0.7,,920.0,,,,,14.2,2,,,
314,1997_12995,1997-09-06 08:20:00+00:00,1997-09-06 08:24:00+00:00,64.678,-61.306,,0.7,,920.0,,,,,14.2,3,,,
315,1997_12995,1997-09-06 09:38:00+00:00,1997-09-06 09:39:00+00:00,64.665,-61.343,,0.4,,920.0,,,,,14.2,2,,,
316,1997_12995,1997-09-06 10:00:00+00:00,1997-09-06 10:04:00+00:00,64.656,-61.348,,0.4,,920.0,,,,,14.2,3,,,
317,1997_12995,1997-09-06 11:18:00+00:00,1997-09-06 11:21:00+00:00,64.647,-61.38,,0.7,,920.0,,,,,14.2,2,,,
318,1997_12995,1997-09-06 11:41:00+00:00,1997-09-06 11:43:00+00:00,64.644,-61.38,,1.0,,920.0,,,,,14.2,1,,,
319,1997_12995,1997-09-06 12:59:00+00:00,1997-09-06 13:17:00+00:00,64.635,-61.389,,1.3,,920.0,,,,,14.2,3,,,
320,1997_12995,1997-09-06 14:39:00+00:00,1997-09-06 14:41:00+00:00,64.631,-61.379,,2.2,,920.0,,,,,14.2,1,,,
321,1997_12995,1997-09-06 15:00:00+00:00,1997-09-06 15:02:00+00:00,64.63,-61.377,,2.2,,920.0,,,,,14.2,2,,,
322,1997_12995,1997-09-06 16:16:00+00:00,1997-09-06 16:19:00+00:00,64.629,-61.347,,2.2,,920.0,,,,,14.2,1,,,
323,1997_12995,1997-09-06 16:35:00+00:00,1997-09-06 16:41:00+00:00,64.623,-61.338,,2.2,,920.0,,,,,14.2,3,,,
324,1997_12995,1997-09-06 17:55:00+00:00,1997-09-06 17:57:00+00:00,64.617,-61.326,,2.8,,920.0,,,,,14.2,3,,,
325,1997_12995,1997-09-06 18:18:00+00:00,1997-09-06 18:22:00+00:00,64.614,-61.328,,2.8,,920.0,,,,,14.2,3,,,
326,1997_12995,1997-09-06 19:35:00+00:00,1997-09-06 19:39:00+00:00,64.61,-61.324,,2.8,,920.0,,,,,14.2,2,,,
327,1997_12995,1997-09-06 20:02:00+00:00,1997-09-06 21:43:00+00:00,64.594,-61.389,,1.3,,920.0,,,,,14.2,1,,,
328,1997_12995,1997-09-06 22:53:00+00:00,1997-09-06 22:57:00+00:00,64.59,-61.351,,1.0,,920.0,,,,,14.2,3,,,
329,1997_12995,1997-09-07 00:36:00+00:00,1997-09-07 04:42:00+00:00,64.58,-61.36,,1.0,,920.0,,,,,14.2,2,,,
330,1997_12995,1997-09-07 06:25:00+00:00,1997-09-07 06:28:00+00:00,64.584,-61.273,,1.6,,920.0,,,,,14.2,3,,,
331,1997_12995,1997-09-07 08:07:00+00:00,1997-09-07 09:16:00+00:00,64.579,-61.28,,1.6,,920.0,,,,,14.2,1,,,
332,1997_12995,1997-09-07 09:49:00+00:00,1997-09-07 09:52:00+00:00,64.575,-61.295,,1.6,,920.0,,,,,14.2,3,,,
333,1997_12995,1997-09-07 10:58:00+00:00,1997-09-07 11:26:00+00:00,64.576,-61.305,,1.9,,920.0,,,,,14.2,3,,,
334,1997_12995,1997-09-07 12:37:00+00:00,1997-09-07 13:06:00+00:00,64.581,-61.316,,2.5,,920.0,,,,,14.2,3,,,
335,1997_12995,1997-09-07 14:15:00+00:00,1997-09-07 15:54:00+00:00,64.588,-61.289,,2.5,,920.0,,,,,14.2,2,,,
336,1997_12995,1997-09-07 16:25:00+00:00,1997-09-07 19:46:00+00:00,64.593,-61.238,,2.5,,920.0,,,,,14.2,2,,,
337,1997_12995,1997-09-07 18:05:00+00:00,1997-09-07 19:47:00+00:00,64.594,-61.205,,2.5,,920.0,,,,,14.2,3,,,
338,1997_12995,1997-09-07 20:51:00+00:00,1997-09-07 21:33:00+00:00,64.601,-61.219,,2.5,,920.0,,,,,14.2,3,,,
339,1997_12995,1997-09-07 22:32:00+00:00,1997-09-08 04:32:00+00:00,64.609,-61.219,,1.9,,920.0,,,,,14.2,3,,,
340,1997_12995,1997-09-08 06:17:00+00:00,1997-09-08 06:17:00+00:00,64.636,-61.137,,1.6,,920.0,,,,,14.2,2,,,
341,1997_12995,1997-09-08 07:59:00+00:00,1997-09-08 09:35:00+00:00,64.64,-61.146,,1.9,,920.0,,,,,14.2,2,,,
342,1997_12995,1997-09-08 10:36:00+00:00,1997-09-08 11:16:00+00:00,64.636,-61.15,,1.9,,920.0,,,,,14.2,3,,,
343,1997_12995,1997-09-08 12:15:00+00:00,1997-09-08 13:54:00+00:00,64.635,-61.162,,2.8,,920.0,,,,,14.2,3,,,
344,1997_12995,1997-09-08 14:35:00+00:00,1997-09-08 14:37:00+00:00,64.638,-61.149,,2.8,,920.0,,,,,14.2,3,,,
345,1997_12995,1997-09-08 15:32:00+00:00,1997-09-08 15:28:00+00:00,64.643,-61.147,,-35.9,,924.99,,,,,14.2,2,,,
346,1997_12995,1997-09-08 16:14:00+00:00,1997-09-08 17:12:00+00:00,64.644,-61.129,,2.5,,920.0,,,,,14.2,2,,,
347,1997_12995,1997-09-08 17:56:00+00:00,1997-09-08 17:57:00+00:00,64.65,-61.112,,2.5,,920.0,,,,,14.2,2,,,
348,1997_12995,1997-09-08 18:50:00+00:00,1997-09-08 18:51:00+00:00,64.655,-61.111,,2.5,,920.0,,,,,14.2,1,,,
349,1997_12995,1997-09-08 19:35:00+00:00,1997-09-08 19:38:00+00:00,64.657,-61.113,,2.5,,920.0,,,,,14.2,1,,,
350,1997_12995,1997-09-08 20:30:00+00:00,1997-09-08 20:32:00+00:00,64.657,-61.103,,2.5,,920.0,,,,,14.2,3,,,
351,1997_12995,1997-09-08 22:08:00+00:00,1997-09-09 04:24:00+00:00,64.66,-61.109,,1.3,,920.0,,,,,14.2,3,,,
352,1997_12995,1997-09-09 06:04:00+00:00,1997-09-09 07:48:00+00:00,64.672,-61.078,,1.0,,920.0,,,,,14.2,2,,,
353,1997_12995,1997-09-09 09:27:00+00:00,1997-09-09 11:08:00+00:00,64.673,-61.084,,1.3,,920.0,,,,,14.2,2,,,
354,1997_12995,1997-09-09 11:54:00+00:00,1997-09-09 12:47:00+00:00,64.671,-61.096,,1.3,,920.0,,,,,14.2,2,,,
355,1997_12995,1997-09-09 13:32:00+00:00,1997-09-09 13:34:00+00:00,64.672,-61.113,,1.6,,920.0,,,,,14.2,3,,,
356,1997_12995,1997-09-09 14:27:00+00:00,1997-09-09 15:09:00+00:00,64.673,-61.117,,2.5,,920.0,,,,,14.2,2,,,
357,1997_12995,1997-09-09 16:05:00+00:00,1997-09-09 16:46:00+00:00,64.681,-61.103,,3.1,,920.0,,,,,14.2,2,,,
358,1997_12995,1997-09-09 17:43:00+00:00,1997-09-09 17:46:00+00:00,64.69,-61.076,,3.1,,920.0,,,,,14.0,3,,,
359,1997_12995,1997-09-09 18:28:00+00:00,1997-09-09 20:06:00+00:00,64.69,-61.059,,1.3,,920.0,,,,,14.0,2,,,
360,1997_12995,1997-09-09 21:46:00+00:00,1997-09-09 21:47:00+00:00,64.7,-61.059,,0.7,,920.0,,,,,14.0,2,,,
361,1997_12995,1997-09-10 05:52:00+00:00,1997-09-10 05:53:00+00:00,64.718,-61.051,,1.3,,920.0,,,,,14.0,2,,,
362,1997_12995,1997-09-10 07:35:00+00:00,1997-09-10 07:35:00+00:00,64.717,-61.028,,1.6,,920.0,,,,,14.0,2,,,
363,1997_12995,1997-09-10 09:15:00+00:00,1997-09-10 10:54:00+00:00,64.721,-61.045,,2.8,,920.0,,,,,14.0,2,,,
364,1997_12995,1997-09-10 11:32:00+00:00,1997-09-10 12:36:00+00:00,64.725,-61.068,,3.1,,920.0,,,,,14.0,2,,,
365,1997_12995,1997-09-10 13:08:00+00:00,1997-09-10 14:12:00+00:00,64.733,-61.099,,3.4,,920.0,,,,,14.0,2,,,
366,1997_12995,1997-09-10 14:13:00+00:00,1997-09-10 14:49:00+00:00,64.737,-61.108,,3.4,,920.0,,,,,14.0,2,,,
367,1997_12995,1997-09-10 15:54:00+00:00,1997-09-10 16:32:00+00:00,64.751,-61.154,,3.4,,920.0,,,,,14.0,3,,,
368,1997_12995,1997-09-10 17:32:00+00:00,1997-09-10 17:34:00+00:00,64.77,-61.154,,3.7,,920.0,,,,,14.0,3,,,
369,1997_12995,1997-09-10 18:06:00+00:00,1997-09-10 19:16:00+00:00,64.768,-61.167,,3.4,,920.0,,,,,14.0,1,,,
370,1997_12995,1997-09-10 19:45:00+00:00,1997-09-10 19:48:00+00:00,64.792,-61.15,,3.1,,920.0,,,,,14.0,3,,,
371,1997_12995,1997-09-10 21:25:00+00:00,1997-09-10 21:28:00+00:00,64.808,-61.147,,3.1,,920.0,,,,,14.0,2,,,
372,1997_12995,1997-09-10 23:06:00+00:00,1997-09-11 03:56:00+00:00,64.816,-61.153,,3.1,,920.0,,,,,14.0,2,,,
373,1997_12995,1997-09-11 05:42:00+00:00,1997-09-11 05:42:00+00:00,64.832,-61.213,,3.4,,920.0,,,,,14.0,2,,,
374,1997_12995,1997-09-11 07:23:00+00:00,1997-09-11 07:45:00+00:00,64.834,-61.204,,1.6,,920.91,,,,,14.0,2,,,
375,1997_12995,1997-09-11 09:03:00+00:00,1997-09-11 09:26:00+00:00,64.84,-61.204,,1.3,,920.0,,,,,14.0,2,,,
376,1997_12995,1997-09-11 10:45:00+00:00,1997-09-11 10:46:00+00:00,64.838,-61.213,,1.6,,920.0,,,,,14.0,1,,,
377,1997_12995,1997-09-11 11:06:00+00:00,1997-09-11 12:28:00+00:00,64.839,-61.225,,3.1,,920.0,,,,,14.0,2,,,
378,1997_12995,1997-09-11 12:46:00+00:00,1997-09-11 12:48:00+00:00,64.836,-61.243,,3.1,,920.0,,,,,14.0,2,,,
379,1997_12995,1997-09-11 14:02:00+00:00,1997-09-11 14:04:00+00:00,64.842,-61.274,,3.7,,920.0,,,,,14.0,2,,,
380,1997_12995,1997-09-11 14:27:00+00:00,1997-09-11 14:30:00+00:00,64.843,-61.272,,3.7,,920.0,,,,,14.0,2,,,
381,1997_12995,1997-09-11 15:45:00+00:00,1997-09-11 15:48:00+00:00,64.844,-61.31,,4.3,,920.0,,,,,14.0,1,,,
382,1997_12995,1997-09-11 16:07:00+00:00,1997-09-11 16:08:00+00:00,64.847,-61.297,,4.3,,920.0,,,,,14.0,3,,,
383,1997_12995,1997-09-11 17:23:00+00:00,1997-09-11 17:24:00+00:00,64.852,-61.311,,4.6,,920.0,,,,,14.0,2,,,
384,1997_12995,1997-09-11 17:45:00+00:00,1997-09-11 17:46:00+00:00,64.854,-61.32,,4.6,,920.0,,,,,14.0,1,,,
385,1997_12995,1997-09-11 19:07:00+00:00,1997-09-11 19:07:00+00:00,64.866,-61.315,,4.0,,920.0,,,,,14.0,3,,,
386,1997_12995,1997-09-11 19:27:00+00:00,1997-09-11 19:28:00+00:00,64.874,-61.33,,4.0,,920.0,,,,,14.0,2,,,
387,1997_12995,1997-09-11 20:48:00+00:00,1997-09-11 21:08:00+00:00,64.883,-61.325,,3.1,,920.0,,,,,14.0,2,,,
388,1997_12995,1997-09-11 22:46:00+00:00,1997-09-12 00:27:00+00:00,64.899,-61.307,,1.3,,920.0,,,,,14.0,3,,,
389,1997_12995,1997-09-12 05:31:00+00:00,1997-09-12 05:28:00+00:00,64.899,-61.38,,1.6,,920.0,,,,,14.0,3,,,
390,1997_12995,1997-09-12 07:14:00+00:00,1997-09-12 10:38:00+00:00,64.901,-61.396,,1.9,,920.0,,,,,14.0,3,,,
391,1997_12995,1997-09-12 10:49:00+00:00,1997-09-12 10:50:00+00:00,64.909,-61.406,,1.9,,920.0,,,,,14.0,3,,,
392,1997_12995,1997-09-12 12:31:00+00:00,1997-09-12 14:06:00+00:00,64.914,-61.436,,3.1,,920.0,,,,,14.0,2,,,
393,1997_12995,1997-09-12 15:30:00+00:00,1997-09-12 17:16:00+00:00,64.908,-61.473,,3.4,,920.0,,,,,14.0,3,,,
394,1997_12995,1997-09-12 17:24:00+00:00,1997-09-12 19:02:00+00:00,64.913,-61.487,,3.4,,920.0,,,,,14.0,1,,,
395,1997_12995,1997-09-12 20:40:00+00:00,1997-09-12 20:41:00+00:00,64.941,-61.504,,2.5,,920.0,,,,,14.0,3,,,
396,1997_12995,1997-09-12 22:20:00+00:00,1997-09-13 05:17:00+00:00,64.957,-61.474,,2.2,,920.0,,,,,14.0,2,,,
397,1997_12995,1997-09-13 07:04:00+00:00,1997-09-13 07:03:00+00:00,64.948,-61.493,,1.9,,920.0,,,,,14.0,2,,,
398,1997_12995,1997-09-13 08:44:00+00:00,1997-09-13 10:30:00+00:00,64.949,-61.502,,1.6,,920.0,,,,,14.0,3,,,
399,1997_12995,1997-09-13 12:04:00+00:00,1997-09-13 12:03:00+00:00,64.957,-61.488,,2.2,,920.0,,,,,14.0,2,,,
400,1997_12995,1997-09-13 13:45:00+00:00,1997-09-13 13:41:00+00:00,64.955,-61.491,,4.9,,922.42,,,,,14.8,1,,,
401,1997_12995,1997-09-13 15:20:00+00:00,1997-09-13 15:25:00+00:00,64.949,-61.502,,3.1,,920.0,,,,,14.0,3,,,
402,1997_12995,1997-09-13 17:01:00+00:00,1997-09-13 17:02:00+00:00,64.943,-61.538,,3.1,,920.0,,,,,14.0,2,,,
403,1997_12995,1997-09-13 18:39:00+00:00,1997-09-13 18:41:00+00:00,64.943,-61.55,,2.5,,920.0,,,,,14.0,1,,,
404,1997_12995,1997-09-13 18:42:00+00:00,1997-09-13 18:42:00+00:00,64.945,-61.555,,2.5,,920.0,,,,,14.0,2,,,
405,1997_12995,1997-09-13 20:17:00+00:00,1997-09-14 05:08:00+00:00,64.951,-61.573,,1.0,,920.0,,,,,14.0,2,,,
406,1997_12995,1997-09-14 06:52:00+00:00,1997-09-14 06:54:00+00:00,64.969,-61.573,,1.3,,920.0,,,,,14.0,3,,,
407,1997_12995,1997-09-14 08:22:00+00:00,1997-09-14 08:24:00+00:00,64.974,-61.589,,1.3,,920.0,,,,,14.0,1,,,
408,1997_12995,1997-09-14 08:30:00+00:00,1997-09-14 10:03:00+00:00,64.969,-61.603,,1.3,,920.0,,,,,14.0,3,,,
409,1997_12995,1997-09-14 10:14:00+00:00,1997-09-14 11:52:00+00:00,64.973,-61.605,,1.9,,920.0,,,,,14.0,2,,,
410,1997_12995,1997-09-14 13:23:00+00:00,1997-09-14 13:33:00+00:00,64.987,-61.583,,2.8,,920.0,,,,,14.0,2,,,
411,1997_12995,1997-09-14 15:02:00+00:00,1997-09-14 15:02:00+00:00,64.99,-61.591,,3.4,,920.0,,,,,14.0,1,,,
412,1997_12995,1997-09-14 15:11:00+00:00,1997-09-14 16:42:00+00:00,64.987,-61.596,,4.9,,920.0,,,,,14.0,2,,,
413,1997_12995,1997-09-14 16:52:00+00:00,1997-09-14 16:55:00+00:00,64.98,-61.614,,4.9,,920.0,,,,,14.0,2,,,
414,1997_12995,1997-09-14 18:20:00+00:00,1997-09-14 18:22:00+00:00,64.975,-61.671,,3.1,,920.0,,,,,14.0,3,,,
415,1997_12995,1997-09-14 18:34:00+00:00,1997-09-14 20:09:00+00:00,64.979,-61.658,,2.2,,920.0,,,,,14.0,1,,,
416,1997_12995,1997-09-14 21:36:00+00:00,1997-09-14 21:39:00+00:00,64.99,-61.685,,1.9,,920.0,,,,,14.0,2,,,
417,1997_12995,1997-09-14 23:20:00+00:00,1997-09-15 01:01:00+00:00,65.008,-61.671,,1.0,,920.0,,,,,14.0,2,,,
418,1997_12995,1997-09-15 06:40:00+00:00,1997-09-15 06:41:00+00:00,65.01,-61.687,,1.3,,920.0,,,,,14.0,3,,,
419,1997_12995,1997-09-15 08:20:00+00:00,1997-09-15 09:59:00+00:00,65.002,-61.723,,1.3,,920.0,,,,,14.0,2,,,
420,1997_12995,1997-09-15 11:22:00+00:00,1997-09-15 11:42:00+00:00,65.005,-61.722,,1.6,,920.0,,,,,14.0,3,,,
421,1997_12995,1997-09-15 13:03:00+00:00,1997-09-15 13:05:00+00:00,65.013,-61.717,,1.9,,920.0,,,,,14.0,2,,,
422,1997_12995,1997-09-15 13:22:00+00:00,1997-09-15 13:24:00+00:00,65.022,-61.713,,1.9,,920.0,,,,,14.0,1,,,
423,1997_12995,1997-09-15 14:41:00+00:00,1997-09-15 14:57:00+00:00,65.023,-61.702,,4.6,,920.0,,,,,14.0,1,,,
424,1997_12995,1997-09-15 16:19:00+00:00,1997-09-15 17:57:00+00:00,65.013,-61.723,,3.7,,920.0,,,,,14.0,1,,,
425,1997_12995,1997-09-15 18:20:00+00:00,1997-09-15 18:22:00+00:00,65.006,-61.758,,3.1,,920.0,,,,,14.0,3,,,
426,1997_12995,1997-09-15 19:35:00+00:00,1997-09-15 19:38:00+00:00,64.997,-61.785,,1.6,,920.0,,,,,14.0,3,,,
427,1997_12995,1997-09-15 21:14:00+00:00,1997-09-15 21:17:00+00:00,64.999,-61.809,,0.7,,920.0,,,,,14.0,1,,,
428,1997_12995,1997-09-15 22:54:00+00:00,1997-09-16 00:36:00+00:00,65.009,-61.807,,0.7,,920.0,,,,,14.0,2,,,
429,1997_12995,1997-09-16 06:26:00+00:00,1997-09-16 07:34:00+00:00,65.023,-61.791,,0.7,,920.0,,,,,14.0,3,,,
430,1997_12995,1997-09-16 08:10:00+00:00,1997-09-16 11:02:00+00:00,64.998,-61.807,,0.7,,920.0,,,,,14.0,1,,,
431,1997_12995,1997-09-16 09:50:00+00:00,1997-09-16 11:31:00+00:00,65.001,-61.877,,0.7,,920.0,,,,,14.0,3,,,
432,1997_12995,1997-09-16 12:42:00+00:00,1997-09-16 13:07:00+00:00,65.017,-61.862,,1.0,,920.0,,,,,14.0,2,,,
433,1997_12995,1997-09-16 14:19:00+00:00,1997-09-16 15:55:00+00:00,65.029,-61.832,,2.2,,920.0,,,,,14.0,3,,,
434,1997_12995,1997-09-16 16:29:00+00:00,1997-09-16 17:34:00+00:00,65.033,-61.81,,2.8,,920.0,,,,,14.0,3,,,
435,1997_12995,1997-09-16 18:09:00+00:00,1997-09-16 19:51:00+00:00,65.024,-61.833,,1.9,,920.0,,,,,14.0,3,,,
436,1997_12995,1997-09-16 20:55:00+00:00,1997-09-16 21:36:00+00:00,65.014,-61.89,,1.6,,920.0,,,,,14.0,2,,,
437,1997_12995,1997-09-16 22:35:00+00:00,1997-09-17 04:36:00+00:00,65.018,-61.903,,0.4,,920.0,,,,,14.0,2,,,
438,1997_12995,1997-09-17 06:19:00+00:00,1997-09-17 07:14:00+00:00,65.051,-61.799,,0.1,,920.0,,,,,14.0,2,,,
439,1997_12995,1997-09-17 08:00:00+00:00,1997-09-17 09:36:00+00:00,65.025,-61.82,,-0.2,,920.0,,,,,14.0,1,,,
440,1997_12995,1997-09-17 10:40:00+00:00,1997-09-17 10:41:00+00:00,65.01,-61.889,,0.1,,920.0,,,,,14.0,2,,,
441,1997_12995,1997-09-17 12:20:00+00:00,1997-09-17 14:38:00+00:00,65.02,-61.888,,2.2,,920.0,,,,,14.0,2,,,
442,1997_12995,1997-09-17 15:36:00+00:00,1997-09-17 15:37:00+00:00,65.044,-61.833,,2.8,,920.0,,,,,14.0,1,,,
443,1997_12995,1997-09-17 16:18:00+00:00,1997-09-17 17:17:00+00:00,65.047,-61.823,,4.3,,920.0,,,,,14.0,2,,,
444,1997_12995,1997-09-17 17:56:00+00:00,1997-09-17 19:34:00+00:00,65.036,-61.839,,2.2,,920.0,,,,,14.0,2,,,
445,1997_12995,1997-09-17 20:32:00+00:00,1997-09-17 20:33:00+00:00,65.014,-61.896,,0.7,,920.0,,,,,14.0,1,,,
446,1997_12995,1997-09-17 22:09:00+00:00,1997-09-18 07:52:00+00:00,65.01,-61.923,,-0.2,,920.0,,,,,14.0,2,,,
447,1997_12995,1997-09-18 09:28:00+00:00,1997-09-18 11:08:00+00:00,65.004,-61.94,,-0.5,,920.0,,,,,14.0,2,,,
448,1997_12995,1997-09-18 11:57:00+00:00,1997-09-18 12:47:00+00:00,65.002,-61.997,,0.4,,920.0,,,,,14.0,1,,,
449,1997_12995,1997-09-18 13:37:00+00:00,1997-09-18 13:39:00+00:00,65.013,-61.963,,2.2,,920.0,,,,,14.0,3,,,
450,1997_12995,1997-09-18 14:25:00+00:00,1997-09-18 14:26:00+00:00,65.019,-61.946,,2.8,,920.0,,,,,14.0,2,,,
451,1997_12995,1997-09-18 16:04:00+00:00,1997-09-18 16:49:00+00:00,65.032,-61.907,,2.5,,920.0,,,,,14.0,2,,,
452,1997_12995,1997-09-18 17:46:00+00:00,1997-09-18 19:27:00+00:00,65.035,-61.897,,1.9,,920.0,,,,,14.0,1,,,
453,1997_12995,1997-09-18 20:08:00+00:00,1997-09-18 21:11:00+00:00,65.02,-61.945,,1.0,,920.0,,,,,14.0,2,,,
454,1997_12995,1997-09-18 21:48:00+00:00,1997-09-19 04:09:00+00:00,65.008,-62.007,,0.7,,920.0,,,,,14.0,2,,,
455,1997_12995,1997-09-19 05:56:00+00:00,1997-09-19 05:59:00+00:00,65.034,-61.981,,0.7,,920.0,,,,,14.0,3,,,
456,1997_12995,1997-09-19 07:37:00+00:00,1997-09-19 07:43:00+00:00,65.021,-62.068,,1.0,,920.0,,,,,14.0,2,,,
457,1997_12995,1997-09-19 09:15:00+00:00,1997-09-19 11:37:00+00:00,64.988,-62.098,,1.0,,920.0,,,,,14.0,3,,,
458,1997_12995,1997-09-19 12:34:00+00:00,1997-09-19 14:49:00+00:00,64.949,-62.213,,1.6,,920.0,,,,,14.0,1,,,
459,1997_12995,1997-09-19 15:55:00+00:00,1997-09-19 16:28:00+00:00,64.965,-62.228,,1.6,,920.0,,,,,14.0,3,,,
460,1997_12995,1997-09-19 17:33:00+00:00,1997-09-19 17:37:00+00:00,64.968,-62.228,,1.6,,920.0,,,,,14.0,2,,,
461,1997_12995,1997-09-19 18:10:00+00:00,1997-09-19 19:50:00+00:00,64.963,-62.25,,1.6,,920.0,,,,,14.0,2,,,
462,1997_12995,1997-09-19 21:27:00+00:00,1997-09-19 21:30:00+00:00,64.919,-62.391,,1.6,,920.0,,,,,13.8,1,,,
463,1997_12995,1997-09-19 23:07:00+00:00,1997-09-20 03:59:00+00:00,64.898,-62.462,,1.3,,920.0,,,,,13.8,2,,,
464,1997_12995,1997-09-20 05:46:00+00:00,1997-09-20 05:48:00+00:00,64.875,-62.571,,1.0,,920.0,,,,,13.8,2,,,
465,1997_12995,1997-09-20 07:28:00+00:00,1997-09-20 07:46:00+00:00,64.853,-62.632,,1.0,,920.0,,,,,13.8,1,,,
466,1997_12995,1997-09-20 09:06:00+00:00,1997-09-20 09:27:00+00:00,64.825,-62.691,,1.0,,920.0,,,,,13.8,3,,,
467,1997_12995,1997-09-20 10:46:00+00:00,1997-09-20 10:46:00+00:00,64.792,-62.791,,0.7,,920.0,,,,,13.8,2,,,
468,1997_12995,1997-09-20 11:12:00+00:00,1997-09-20 11:17:00+00:00,64.787,-62.827,,0.7,,920.0,,,,,13.8,2,,,
469,1997_12995,1997-09-20 12:24:00+00:00,1997-09-20 12:27:00+00:00,64.771,-62.883,,0.7,,920.0,,,,,13.8,2,,,
470,1997_12995,1997-09-20 12:49:00+00:00,1997-09-20 12:50:00+00:00,64.761,-62.899,,1.0,,920.0,,,,,13.8,2,,,
471,1997_12995,1997-09-20 14:05:00+00:00,1997-09-20 14:28:00+00:00,64.753,-62.93,,1.0,,920.0,,,,,13.8,2,,,
472,1997_12995,1997-09-20 15:42:00+00:00,1997-09-20 15:46:00+00:00,64.741,-62.9,,0.7,,920.0,,,,,13.8,3,,,
473,1997_12995,1997-09-20 16:09:00+00:00,1997-09-20 19:03:00+00:00,64.737,-62.897,,0.7,,920.0,,,,,13.8,1,,,
474,1997_12995,1997-09-20 19:26:00+00:00,1997-09-20 19:27:00+00:00,64.707,-62.907,,0.4,,920.0,,,,,13.8,1,,,
475,1997_12995,1997-09-20 21:07:00+00:00,1997-09-20 22:48:00+00:00,64.681,-62.975,,0.4,,920.0,,,,,13.8,2,,,
476,1997_12995,1997-09-21 05:31:00+00:00,1997-09-21 05:33:00+00:00,64.582,-63.155,,0.4,,920.0,,,,,13.8,2,,,
477,1997_12995,1997-09-21 07:13:00+00:00,1997-09-21 07:16:00+00:00,64.562,-63.153,,0.7,,920.0,,,,,13.8,3,,,
478,1997_12995,1997-09-21 08:54:00+00:00,1997-09-21 10:33:00+00:00,64.537,-63.172,,-0.2,,920.0,,,,,13.8,3,,,
479,1997_12995,1997-09-21 10:49:00+00:00,1997-09-21 12:13:00+00:00,64.516,-63.246,,0.7,,920.0,,,,,13.8,3,,,
480,1997_12995,1997-09-21 12:27:00+00:00,1997-09-21 12:29:00+00:00,64.495,-63.284,,0.7,,920.0,,,,,13.8,2,,,
481,1997_12995,1997-09-21 13:54:00+00:00,1997-09-21 13:55:00+00:00,64.485,-63.3,,1.0,,920.0,,,,,13.8,1,,,
482,1997_12995,1997-09-21 14:06:00+00:00,1997-09-21 14:06:00+00:00,64.492,-63.329,,1.0,,920.0,,,,,13.8,1,,,
483,1997_12995,1997-09-21 15:33:00+00:00,1997-09-21 15:45:00+00:00,64.478,-63.315,,1.3,,920.0,,,,,13.8,3,,,
484,1997_12995,1997-09-21 17:12:00+00:00,1997-09-21 17:24:00+00:00,64.477,-63.294,,1.0,,920.0,,,,,13.8,1,,,
485,1997_12995,1997-09-21 18:55:00+00:00,1997-09-21 18:56:00+00:00,64.47,-63.291,,0.7,,920.0,,,,,13.8,3,,,
486,1997_12995,1997-09-21 19:04:00+00:00,1997-09-21 19:06:00+00:00,64.475,-63.291,,0.7,,920.0,,,,,13.8,3,,,
487,1997_12995,1997-09-21 20:43:00+00:00,1997-09-21 22:25:00+00:00,64.474,-63.305,,0.1,,920.0,,,,,13.8,1,,,
488,1997_12995,1997-09-22 05:19:00+00:00,1997-09-22 05:21:00+00:00,64.466,-63.46,,0.4,,920.0,,,,,13.8,1,,,
489,1997_12995,1997-09-22 07:04:00+00:00,1997-09-22 07:03:00+00:00,64.463,-63.439,,0.1,,920.0,,,,,13.8,3,,,
490,1997_12995,1997-09-22 08:44:00+00:00,1997-09-22 08:43:00+00:00,64.464,-63.451,,-0.2,,920.0,,,,,13.8,3,,,
491,1997_12995,1997-09-22 10:26:00+00:00,1997-09-22 11:59:00+00:00,64.465,-63.492,,-0.2,,920.0,,,,,13.6,2,,,
492,1997_12995,1997-09-22 12:07:00+00:00,1997-09-22 12:08:00+00:00,64.461,-63.513,,0.1,,920.0,,,,,13.8,2,,,
493,1997_12995,1997-09-22 13:44:00+00:00,1997-09-22 13:45:00+00:00,64.459,-63.54,,0.4,,920.0,,,,,13.8,2,,,
494,1997_12995,1997-09-22 13:45:00+00:00,1997-09-22 15:20:00+00:00,64.457,-63.535,,1.0,,920.0,,,,,13.8,3,,,
495,1997_12995,1997-09-22 15:26:00+00:00,1997-09-22 15:30:00+00:00,64.453,-63.539,,1.0,,920.0,,,,,13.8,1,,,
496,1997_12995,1997-09-22 17:05:00+00:00,1997-09-22 17:06:00+00:00,64.449,-63.501,,1.3,,920.0,,,,,13.8,2,,,
497,1997_12995,1997-09-22 18:44:00+00:00,1997-09-22 18:43:00+00:00,64.451,-63.467,,1.6,,920.0,,,,,13.8,2,,,
498,1997_12995,1997-09-22 20:21:00+00:00,1997-09-22 20:28:00+00:00,64.454,-63.452,,1.3,,920.0,,,,,13.8,3,,,
499,1997_12995,1997-09-22 22:02:00+00:00,1997-09-23 05:13:00+00:00,64.456,-63.453,,0.4,,920.0,,,,,13.8,3,,,
500,1997_12995,1997-09-23 06:56:00+00:00,1997-09-23 08:26:00+00:00,64.429,-63.43,,0.4,,920.0,,,,,13.8,1,,,
501,1997_12995,1997-09-23 08:36:00+00:00,1997-09-23 08:40:00+00:00,64.434,-63.399,,0.4,,920.0,,,,,13.8,2,,,
502,1997_12995,1997-09-23 10:09:00+00:00,1997-09-23 11:54:00+00:00,64.429,-63.408,,0.1,,920.0,,,,,13.8,2,,,
503,1997_12995,1997-09-23 13:25:00+00:00,1997-09-23 15:13:00+00:00,64.43,-63.426,,1.6,,920.0,,,,,13.8,3,,,
504,1997_12995,1997-09-23 16:44:00+00:00,1997-09-23 16:46:00+00:00,64.427,-63.429,,1.6,,920.0,,,,,13.8,1,,,
505,1997_12995,1997-09-23 16:54:00+00:00,1997-09-23 16:57:00+00:00,64.427,-63.415,,1.9,,920.0,,,,,13.8,3,,,
506,1997_12995,1997-09-23 18:23:00+00:00,1997-09-23 18:24:00+00:00,64.431,-63.386,,1.6,,920.0,,,,,13.8,2,,,
507,1997_12995,1997-09-23 18:35:00+00:00,1997-09-23 18:38:00+00:00,64.43,-63.393,,1.6,,920.0,,,,,13.8,2,,,
508,1997_12995,1997-09-23 19:59:00+00:00,1997-09-23 20:02:00+00:00,64.434,-63.38,,1.6,,920.0,,,,,13.8,3,,,
509,1997_12995,1997-09-23 20:15:00+00:00,1997-09-23 20:17:00+00:00,64.433,-63.383,,1.6,,920.0,,,,,13.8,1,,,
510,1997_12995,1997-09-23 21:42:00+00:00,1997-09-23 21:59:00+00:00,64.435,-63.376,,1.0,,920.0,,,,,13.8,2,,,
511,1997_12995,1997-09-23 23:21:00+00:00,1997-09-24 05:02:00+00:00,64.431,-63.384,,0.7,,920.0,,,,,13.8,2,,,
512,1997_12995,1997-09-24 06:40:00+00:00,1997-09-24 06:41:00+00:00,64.425,-63.4,,0.7,,920.0,,,,,13.8,1,,,
513,1997_12995,1997-09-24 08:19:00+00:00,1997-09-24 10:09:00+00:00,64.45,-63.46,,0.7,,920.0,,,,,13.8,1,,,
514,1997_12995,1997-09-24 11:22:00+00:00,1997-09-24 11:24:00+00:00,64.427,-63.401,,0.4,,920.0,,,,,13.8,2,,,
515,1997_12995,1997-09-24 11:43:00+00:00,1997-09-24 11:45:00+00:00,64.425,-63.395,,0.4,,920.0,,,,,13.8,2,,,
516,1997_12995,1997-09-24 13:04:00+00:00,1997-09-24 13:08:00+00:00,64.423,-63.408,,0.7,,920.0,,,,,13.8,3,,,
517,1997_12995,1997-09-24 13:24:00+00:00,1997-09-24 13:25:00+00:00,64.416,-63.433,,0.7,,920.0,,,,,13.8,2,,,
518,1997_12995,1997-09-24 14:45:00+00:00,1997-09-24 14:48:00+00:00,64.425,-63.435,,0.7,,920.0,,,,,13.8,2,,,
519,1997_12995,1997-09-24 15:01:00+00:00,1997-09-24 15:04:00+00:00,64.425,-63.441,,0.7,,920.0,,,,,13.8,3,,,
520,1997_12995,1997-09-24 16:22:00+00:00,1997-09-24 16:24:00+00:00,64.425,-63.416,,0.7,,920.0,,,,,13.8,2,,,
521,1997_12995,1997-09-24 16:41:00+00:00,1997-09-24 16:43:00+00:00,64.426,-63.44,,0.7,,920.0,,,,,13.8,1,,,
522,1997_12995,1997-09-24 18:02:00+00:00,1997-09-24 18:03:00+00:00,64.435,-63.416,,0.7,,920.0,,,,,13.8,1,,,
523,1997_12995,1997-09-24 18:25:00+00:00,1997-09-24 18:26:00+00:00,64.431,-63.415,,0.7,,920.0,,,,,13.8,2,,,
524,1997_12995,1997-09-24 19:38:00+00:00,1997-09-24 21:47:00+00:00,64.435,-63.388,,0.4,,920.0,,,,,13.8,1,,,
525,1997_12995,1997-09-24 23:01:00+00:00,1997-09-24 23:03:00+00:00,64.44,-63.358,,0.1,,920.0,,,,,13.8,3,,,
526,1997_12995,1997-09-25 00:42:00+00:00,1997-09-25 06:30:00+00:00,64.453,-63.343,,-0.2,,920.0,,,,,13.8,1,,,
527,1997_12995,1997-09-25 08:11:00+00:00,1997-09-25 08:14:00+00:00,64.439,-63.328,,-0.2,,920.0,,,,,13.8,2,,,
528,1997_12995,1997-09-25 09:21:00+00:00,1997-09-25 09:21:00+00:00,64.441,-63.324,,-0.2,,920.0,,,,,13.8,3,,,
529,1997_12995,1997-09-25 09:52:00+00:00,1997-09-25 09:54:00+00:00,64.441,-63.323,,0.1,,920.0,,,,,13.8,3,,,
530,1997_12995,1997-09-25 11:00:00+00:00,1997-09-25 11:03:00+00:00,64.442,-63.309,,0.1,,920.0,,,,,13.8,2,,,
531,1997_12995,1997-09-25 11:32:00+00:00,1997-09-25 11:34:00+00:00,64.439,-63.308,,0.1,,920.0,,,,,13.8,2,,,
532,1997_12995,1997-09-25 12:40:00+00:00,1997-09-25 12:44:00+00:00,64.441,-63.306,,0.4,,920.0,,,,,13.8,2,,,
533,1997_12995,1997-09-25 13:12:00+00:00,1997-09-25 13:15:00+00:00,64.441,-63.305,,0.4,,920.0,,,,,13.8,2,,,
534,1997_12995,1997-09-25 14:22:00+00:00,1997-09-25 14:25:00+00:00,64.441,-63.311,,0.4,,920.0,,,,,13.8,3,,,
535,1997_12995,1997-09-25 14:49:00+00:00,1997-09-25 14:52:00+00:00,64.44,-63.312,,0.4,,920.0,,,,,13.8,2,,,
536,1997_12995,1997-09-25 16:00:00+00:00,1997-09-25 16:04:00+00:00,64.444,-63.315,,0.1,,920.0,,,,,13.8,3,,,
537,1997_12995,1997-09-25 16:31:00+00:00,1997-09-25 17:37:00+00:00,64.443,-63.313,,0.4,,920.0,,,,,13.8,2,,,
538,1997_12995,1997-09-25 18:12:00+00:00,1997-09-25 18:14:00+00:00,64.44,-63.298,,0.4,,920.0,,,,,17.0,3,,,
539,1997_12995,1997-09-25 19:19:00+00:00,1997-09-25 21:04:00+00:00,64.438,-63.276,,0.4,,920.0,,,,,13.8,2,,,
540,1997_12995,1997-09-25 19:55:00+00:00,1997-09-25 19:56:00+00:00,64.44,-63.256,,0.4,,920.0,,,,,13.8,2,,,
541,1997_12995,1997-09-25 20:58:00+00:00,1997-09-25 21:35:00+00:00,64.434,-63.233,,0.4,,920.0,,,,,13.8,1,,,
542,1997_12995,1997-09-25 22:39:00+00:00,1997-09-26 04:35:00+00:00,64.43,-63.212,,-0.2,,920.0,,,,,13.8,2,,,
543,1997_12995,1997-09-26 08:03:00+00:00,1997-09-26 08:56:00+00:00,64.404,-63.128,,-0.5,,920.0,,,,,13.8,1,,,
544,1997_12995,1997-09-26 09:42:00+00:00,1997-09-26 10:41:00+00:00,64.395,-63.077,,-0.8,,920.0,,,,,13.8,3,,,
545,1997_12995,1997-09-26 11:21:00+00:00,1997-09-26 11:25:00+00:00,64.386,-63.046,,-0.5,,920.0,,,,,13.8,2,,,
546,1997_12995,1997-09-26 12:22:00+00:00,1997-09-26 13:01:00+00:00,64.382,-63.028,,-0.5,,920.0,,,,,13.8,2,,,
547,1997_12995,1997-09-26 13:59:00+00:00,1997-09-26 14:04:00+00:00,64.379,-63.01,,-0.5,,920.0,,,,,13.8,2,,,
548,1997_12995,1997-09-26 14:40:00+00:00,1997-09-26 14:43:00+00:00,64.376,-63.011,,-0.5,,920.0,,,,,13.8,2,,,
549,1997_12995,1997-09-26 15:39:00+00:00,1997-09-26 15:42:00+00:00,64.374,-63.011,,-0.2,,920.0,,,,,13.8,3,,,
550,1997_12995,1997-09-26 16:20:00+00:00,1997-09-26 16:22:00+00:00,64.372,-63.01,,-0.2,,920.0,,,,,13.8,1,,,
551,1997_12995,1997-09-26 17:19:00+00:00,1997-09-26 17:21:00+00:00,64.356,-63.041,,0.1,,920.0,,,,,13.8,1,,,
552,1997_12995,1997-09-26 18:02:00+00:00,1997-09-26 18:05:00+00:00,64.365,-63.0,,-0.2,,920.0,,,,,13.8,3,,,
553,1997_12995,1997-09-26 19:42:00+00:00,1997-09-26 19:44:00+00:00,64.358,-62.981,,-0.5,,920.0,,,,,13.8,2,,,
554,1997_12995,1997-09-26 20:36:00+00:00,1997-09-26 21:25:00+00:00,64.36,-62.959,,-0.8,,920.0,,,,,13.8,2,,,
